[
  {
    "id": "1",
    "name": "Old Quarter",
    "image": "https://dynamic-media-cdn.tripadvisor.com/media/photo-o/09/32/1d/c4/old-quarter.jpg?w=500&h=400&s=1",
    "rating": 4.5,
    "category": "Neighborhoods",
    "description": "",
    "lat": 21.0349204,
    "lng": 105.852144
  },
  {
    "id": "46",
    "name": "Thang Long Water Puppet",
    "image": "https://dynamic-media-cdn.tripadvisor.com/media/photo-o/18/25/aa/1e/thang-long-water-puppet.jpg?w=500&h=400&s=1",
    "rating": 4.0,
    "category": "Theaters",
    "description": "",
    "lat": 21.0317044,
    "lng": 105.853455
  },
  {
    "id": "4",
    "name": "Ho Chi Minh Mausoleum",
    "image": "https://dynamic-media-cdn.tripadvisor.com/media/photo-o/1b/32/93/64/mausoleum.jpg?w=500&h=400&s=1",
    "rating": 3.9,
    "category": "Historic Sites",
    "description": "",
    "lat": 21.0367831,
    "lng": 105.8346888
  },
  {
    "id": "2",
    "name": "Hoa Lo Prison",
    "image": "https://dynamic-media-cdn.tripadvisor.com/media/photo-o/1b/2c/0d/94/photo7jpg.jpg?w=500&h=400&s=1",
    "rating": 4.2,
    "category": "Historic Sites",
    "description": "",
    "lat": 21.0254222,
    "lng": 105.8465093
  },
  {
    "id": "5",
    "name": "Vietnam Museum of Ethnology",
    "image": "https://dynamic-media-cdn.tripadvisor.com/media/photo-o/09/df/60/bc/p-20151223-095557-2-largejpg.jpg?w=500&h=400&s=1",
    "rating": 4.4,
    "category": "History Museums",
    "description": "Vietnam Museum of Ethnology is a unit under Vietnam Academy of Scocial Sciences. Vietnam Museum of Ethnology is both a research centre and a public museum exhibiting the ethnic groups of Vietnam. …",
    "lat": 21.0400775,
    "lng": 105.7988403
  },
  {
    "id": "7",
    "name": "Vietnamese Women's Museum",
    "image": "https://dynamic-media-cdn.tripadvisor.com/media/photo-o/1a/69/e3/b6/photo3jpg.jpg?w=500&h=400&s=1",
    "rating": 4.5,
    "category": "Speciality Museums",
    "description": "Focused on the contribution of women to Vietnam's history and culture, this museum highlights their roles in Vietnam's many military conflicts as well as in commerce, including features on female …",
    "lat": 21.0233507,
    "lng": 105.8515958
  },
  {
    "id": "25",
    "name": "Ho Chi Minh’s Stilt House",
    "image": "https://dynamic-media-cdn.tripadvisor.com/media/photo-o/07/ef/c1/88/nice-building.jpg?w=500&h=400&s=1",
    "rating": 4.0,
    "category": "Historic Sites",
    "description": "",
    "lat": 21.0381713,
    "lng": 105.833152
  },
  {
    "id": "9",
    "name": "St. Joseph's Cathedral",
    "image": "https://dynamic-media-cdn.tripadvisor.com/media/photo-o/0c/32/bb/34/nha-th-l-n-ha-n-i-40.jpg?w=500&h=-1&s=1",
    "rating": 4.0,
    "category": "Points of Interest & Landmarks",
    "description": "",
    "lat": 21.0286483,
    "lng": 105.8488566
  },
  {
    "id": "22",
    "name": "West Lake",
    "image": "https://dynamic-media-cdn.tripadvisor.com/media/photo-o/18/9a/9c/e4/tr-n-qu-c-pagoda-its.jpg?w=500&h=400&s=1",
    "rating": 4.0,
    "category": "Bodies of Water",
    "description": "",
    "lat": 21.0580419,
    "lng": 105.8139655
  },
  {
    "id": "10",
    "name": "Vietnam Military History Museum",
    "image": "https://dynamic-media-cdn.tripadvisor.com/media/photo-o/09/ba/ec/68/militaire-geschiedenis.jpg?w=500&h=-1&s=1",
    "rating": 3.9,
    "category": "Military Museums",
    "description": "This repository of Vietnam's military history includes rooms full of war propganda, photographs and documents from wars against China, France, and the United States. The grounds feature several captured…",
    "lat": 21.0116264,
    "lng": 105.7548056
  },
  {
    "id": "33",
    "name": "One Pillar Pagoda",
    "image": "https://dynamic-media-cdn.tripadvisor.com/media/photo-o/14/61/62/de/chua-m-t-c-t-one-pillar.jpg?w=500&h=400&s=1",
    "rating": 3.6,
    "category": "Religious Sites",
    "description": "The One Pillar Pagoda (Vietnamese: Chua Mot Cot, formally Dien Huu tu 延祐寺 or Lien Hoa Dai 蓮花臺) is a historic Buddhist temple in Hanoi, the capital of Vietnam. It is regarded alongside the Perfume …",
    "lat": 21.0358555,
    "lng": 105.8336143
  },
  {
    "id": "15",
    "name": "Hanoi Opera House",
    "image": "https://dynamic-media-cdn.tripadvisor.com/media/photo-o/13/70/b7/33/hanoi-opera-house.jpg?w=500&h=-1&s=1",
    "rating": 4.1,
    "category": "Theaters",
    "description": "Resembling the Opéra Palais Garnier, Hanoi Opera House, built in 10 years since 1911 by two French architects. The magnificent building became one of the top landmarks in Hanoi. The Opera House hosts…",
    "lat": 21.0242041,
    "lng": 105.8578297
  },
  {
    "id": "23",
    "name": "Ho Chi Minh Museum",
    "image": "https://dynamic-media-cdn.tripadvisor.com/media/photo-o/16/1c/d0/c6/hochiminh-museum.jpg?w=500&h=400&s=1",
    "rating": 3.7,
    "category": "History Museums",
    "description": "Wellcome to Ho Chi Minh Museum! President Ho Chi Minh - Vietnamese hero of national liberation and great man of culture. After he passed away on September 2nd 1969, in compliance with the Vietnamese…",
    "lat": 21.0356168,
    "lng": 105.8326294
  },
  {
    "id": "24",
    "name": "Đền Ngọc Sơn",
    "image": "https://dynamic-media-cdn.tripadvisor.com/media/photo-o/14/56/77/35/d-n-ng-c-son.jpg?w=500&h=400&s=1",
    "rating": 3.8,
    "category": "Religious Sites",
    "description": "This temple alongside Lake Hoan Kiem was built in the 19th century, and named after Saint Van Xuong. Confucian scholar Nguyen Van Sieu had a large pen-shaped tower built at the entrance of the temple…",
    "lat": 21.0307272,
    "lng": 105.8523763
  },
  {
    "id": "19",
    "name": "Chua Tran Quoc",
    "image": "https://dynamic-media-cdn.tripadvisor.com/media/photo-o/01/f1/88/ce/tran-quoc-pagoda-1.jpg?w=500&h=400&s=1",
    "rating": 4.2,
    "category": "Religious Sites",
    "description": "Chùa Trấn Quốc (or Tran Quoc Pagoda) is located beside the dazzling West Lake, on Thanh Nien Road, Hanoi. Particularly, it is seated on an island linked by a bridge to the causeway between the two…",
    "lat": 21.0478837,
    "lng": 105.8368375
  },
  {
    "id": "28",
    "name": "Long Bien Bridge",
    "image": "https://dynamic-media-cdn.tripadvisor.com/media/photo-o/14/49/4e/c9/c-u-long-bien.jpg?w=500&h=400&s=1",
    "rating": 4.1,
    "category": "Points of Interest & Landmarks",
    "description": "The Long Bien bridge across the Red River connects Hanoi with the main port of Haiphong. Designed by Gustave Eiffel, the bridge sustained significant damage during the Vietnam War. Only half of the…",
    "lat": 21.0430731,
    "lng": 105.8580295
  },
  {
    "id": "13",
    "name": "Đường Tàu",
    "image": "https://dynamic-media-cdn.tripadvisor.com/media/photo-o/17/94/39/19/photo0jpg.jpg?w=500&h=400&s=1",
    "rating": 4.1,
    "category": "Points of Interest & Landmarks",
    "description": "Nestled in Hanoi’s Old Quarter, this narrow alley attracts travelers hoping to snap a picture on the active train track, and even catch a train whizz by! This alley is actually a residential area—…",
    "lat": 20.9705285,
    "lng": 105.8417959
  },
  {
    "id": "31",
    "name": "Dong Xuan Market",
    "image": "https://dynamic-media-cdn.tripadvisor.com/media/photo-o/0a/a0/bc/dc/many-shops-selling-similar.jpg?w=500&h=400&s=1",
    "rating": 3.0,
    "category": "Flea & Street Markets",
    "description": "",
    "lat": 21.0380525,
    "lng": 105.8494257
  },
  {
    "id": "11",
    "name": "Night Market",
    "image": "https://dynamic-media-cdn.tripadvisor.com/media/photo-o/0a/29/c7/6d/photo3jpg.jpg?w=500&h=-1&s=1",
    "rating": 3.5,
    "category": "Flea & Street Markets",
    "description": "Every weekend, a section of Hanoi’s old town is closed to road traffic, and the streets come to life with stalls peddling clothes, footwear, sunglasses, souvenirs, and more. So put on your haggling…",
    "lat": 21.0332192,
    "lng": 105.8523763
  },
  {
    "id": "21",
    "name": "Imperial Citadel of Thang Long",
    "image": "https://dynamic-media-cdn.tripadvisor.com/media/photo-o/18/c5/b7/6b/the-front-of-doan-mon.jpg?w=500&h=400&s=1",
    "rating": 4.0,
    "category": "Historic Sites",
    "description": "Welcome to the Imperial Citadel of Thang Long – Hanoi! Situated at the heart of Hanoi, the Central Sector of the Imperial Citadel of Thang Long is an outstanding place of interest not only for the…",
    "lat": 21.0356929,
    "lng": 105.8403038
  },
  {
    "id": "52",
    "name": "Perfume Pagoda",
    "image": "https://dynamic-media-cdn.tripadvisor.com/media/photo-o/12/a2/94/70/perfume-pagoda-trip.jpg?w=500&h=400&s=1",
    "rating": 3.7,
    "category": "Religious Sites",
    "description": "",
    "lat": 20.6054692,
    "lng": 105.7742768
  },
  {
    "id": "49",
    "name": "Thap Rua Tower",
    "image": "https://dynamic-media-cdn.tripadvisor.com/media/photo-o/0b/71/86/2a/view-at-night.jpg?w=500&h=400&s=1",
    "rating": 4.0,
    "category": "Points of Interest & Landmarks",
    "description": "",
    "lat": 21.0278731,
    "lng": 105.8522929
  },
  {
    "id": "20",
    "name": "Hanoi Old Quarter Vietnam",
    "image": "https://dynamic-media-cdn.tripadvisor.com/media/photo-o/0e/2a/9d/51/hang-gai-05.jpg?w=500&h=400&s=1",
    "rating": 4.0,
    "category": "Points of Interest & Landmarks",
    "description": "",
    "lat": 21.0327085,
    "lng": 105.8545846
  },
  {
    "id": "39",
    "name": "Thang Long Water Puppet Theater",
    "image": "https://dynamic-media-cdn.tripadvisor.com/media/photo-o/31/79/6d/05/thang-long-water-puppet.jpg?w=500&h=400&s=1",
    "rating": 4.0,
    "category": "Theaters",
    "description": "Water Puppetry is a traditional art form with distinctive culture identity of Vietnam. It came into existence, developed and diversified over a thousand years ago in the Red River Delta. Thanks to…",
    "lat": 21.0317044,
    "lng": 105.853455
  },
  {
    "id": "34",
    "name": "Vietnam National Museum of History",
    "image": "https://dynamic-media-cdn.tripadvisor.com/media/photo-o/12/d0/03/28/a-blending-of-french.jpg?w=500&h=400&s=1",
    "rating": 3.7,
    "category": "History Museums",
    "description": "",
    "lat": 21.02414,
    "lng": 105.8597599
  },
  {
    "id": "88",
    "name": "Hanoi Flag Tower",
    "image": "https://dynamic-media-cdn.tripadvisor.com/media/photo-s/02/3e/bc/83/filename-dscf4263-jpg.jpg?w=500&h=-1&s=1",
    "rating": 3.8,
    "category": "Military Museums",
    "description": "This place was built between 1805 and 1812 under King Gia Long and is over 2 centuries old. It resembles an old stone fortress and has steps leading to the top where one can get a good view of the…",
    "lat": 21.0325903,
    "lng": 105.8398246
  },
  {
    "id": "44",
    "name": "Ancient House",
    "image": "https://dynamic-media-cdn.tripadvisor.com/media/photo-o/17/35/a5/c0/ancient-house.jpg?w=500&h=400&s=1",
    "rating": 4.1,
    "category": "Speciality Museums",
    "description": "This house in the Old Quarter was restored in 1999, as an example of an ancient Hanoian home. It represents the architecture of the Old Quarter, and is decorated to reflect ancient houses of Hanoi…",
    "lat": 20.7423183,
    "lng": 107.0288077
  },
  {
    "id": "32",
    "name": "Duong Lam Ancient Village",
    "image": "https://dynamic-media-cdn.tripadvisor.com/media/photo-o/03/9c/4d/cb/duong-lam.jpg?w=500&h=400&s=1",
    "rating": 4.2,
    "category": "Historic Sites",
    "description": "Duong Lam is a commune of Son Tay town, Hanoi, Vietnam. Duong Lam becomes the first ancient village in Vietnam. Two of Vietnam’s kings, Phung Hung (761-802) and Ngo Quyen (896-944) were born in Duong…",
    "lat": 24.7307415,
    "lng": 110.4496338
  },
  {
    "id": "51",
    "name": "Quan Thanh Temple",
    "image": "https://dynamic-media-cdn.tripadvisor.com/media/photo-o/15/3e/e3/6e/caption.jpg?w=500&h=400&s=1",
    "rating": 4.0,
    "category": "Religious Sites",
    "description": "Legend has it that Quan Thanh Temple was established during the reign of Emperor Ly Thai To (reigned 1010–1028) and was dedicated to Tran Vu, Deity of the North in Taoism, whose symbols of power are…",
    "lat": 21.0430059,
    "lng": 105.8365874
  },
  {
    "id": "17",
    "name": "Lotte Observation Deck",
    "image": "https://dynamic-media-cdn.tripadvisor.com/media/photo-o/16/07/09/d8/lotte-skywalk.jpg?w=500&h=400&s=1",
    "rating": 4.4,
    "category": "Observation Decks & Towers",
    "description": "The Lotte Observation Deck is on the 65F, 267m high from the ground with large space.We have the Photo Zone in B1F, the Photo Counter and the Photo at Skywalk in the 65F so you can taking and buying…",
    "lat": 21.0322019,
    "lng": 105.8123288
  },
  {
    "id": "69",
    "name": "Hanoi Police Museum",
    "image": "https://dynamic-media-cdn.tripadvisor.com/media/photo-o/16/1d/f8/97/uniforms.jpg?w=500&h=-1&s=1",
    "rating": 4.4,
    "category": "Speciality Museums",
    "description": "",
    "lat": 21.0245019,
    "lng": 105.8459685
  },
  {
    "id": "277",
    "name": "Ca Tru Thang Long",
    "image": "https://dynamic-media-cdn.tripadvisor.com/media/photo-o/09/70/52/a7/cau-l-c-b-ca-tru-thang.jpg?w=500&h=400&s=1",
    "rating": 4.5,
    "category": "Theaters",
    "description": "\"Visiting Vietnam without listening to a rhythm of ca tru traditional music means that you've not discovered the real spirit of Vietnam yet.\" \"Free yourself and get immersed in ca tru while enjoying…",
    "lat": 21.0360441,
    "lng": 105.8517949
  },
  {
    "id": "56",
    "name": "B52 Victory Museum",
    "image": "https://dynamic-media-cdn.tripadvisor.com/media/photo-o/09/ad/6a/6b/b52-victory-museum.jpg?w=500&h=-1&s=1",
    "rating": 3.9,
    "category": "Speciality Museums",
    "description": "",
    "lat": 21.0355466,
    "lng": 105.8260952
  },
  {
    "id": "35",
    "name": "Ta Hien Street",
    "image": "https://dynamic-media-cdn.tripadvisor.com/media/photo-o/15/9f/58/e1/20181205-220644-largejpg.jpg?w=500&h=-1&s=1",
    "rating": 4.0,
    "category": "Points of Interest & Landmarks",
    "description": "",
    "lat": 21.0341961,
    "lng": 105.8520789
  },
  {
    "id": "68",
    "name": "Ly Thai To Park",
    "image": "https://dynamic-media-cdn.tripadvisor.com/media/photo-o/14/2d/9a/80/ly-thai-to-park.jpg?w=500&h=400&s=1",
    "rating": 3.9,
    "category": "Parks",
    "description": "",
    "lat": 21.0274649,
    "lng": 105.8547497
  },
  {
    "id": "228",
    "name": "The Quintessence of Tonkin",
    "image": "https://dynamic-media-cdn.tripadvisor.com/media/photo-o/15/41/89/f9/hinh-nh-m-y-anh-trai.jpg?w=500&h=400&s=1",
    "rating": 4.6,
    "category": "Theater & Performances",
    "description": "",
    "lat": 21.0196558,
    "lng": 105.6399338
  },
  {
    "id": "135",
    "name": "Lenin Statue",
    "image": "https://dynamic-media-cdn.tripadvisor.com/media/photo-o/06/0d/bf/0b/peaceful-park.jpg?w=500&h=-1&s=1",
    "rating": 3.5,
    "category": "Monuments & Statues",
    "description": "This Lenin statue in a park at Nguyen Thai Hoc avenue is one of the few remains I saw of a recent communist past here in Vietnam. Now it seems Sony neon advertising are prefered to those old sovietic…",
    "lat": 52.2794249,
    "lng": 104.2827022
  },
  {
    "id": "165",
    "name": "GOm Show",
    "image": "https://dynamic-media-cdn.tripadvisor.com/media/photo-o/30/77/94/42/a-gom-show-artist-performs.jpg?w=500&h=400&s=1",
    "rating": 5.0,
    "category": "Theater & Performances",
    "description": "GOm Show - The Sound of Ceramics, is a creative musical art project inspired by the traditional Vietnamese ceramic culture. Blending indigenous music with an innovative system of instruments crafted…",
    "lat": 21.0283253,
    "lng": 105.8551865
  },
  {
    "id": "113",
    "name": "Old City Gate",
    "image": "https://dynamic-media-cdn.tripadvisor.com/media/photo-o/14/56/71/c3/o-quan-chu-ng.jpg?w=500&h=400&s=1",
    "rating": 3.6,
    "category": "Points of Interest & Landmarks",
    "description": "The attractive shape of the only city gate remaining in Hanoi harks back to a time when the city was under siege. Walk through the arched main entrance of the Hanoi Old City Gate and imagine being…",
    "lat": 48.1438085,
    "lng": 17.1122224
  },
  {
    "id": "129",
    "name": "Museum of the Revolution",
    "image": "https://dynamic-media-cdn.tripadvisor.com/media/photo-o/09/ae/46/c6/museum-of-the-revolution.jpg?w=500&h=-1&s=1",
    "rating": 3.3,
    "category": "History Museums",
    "description": "",
    "lat": 23.1415603,
    "lng": -82.356688
  },
  {
    "id": "95",
    "name": "Ba Dinh Square",
    "image": "https://dynamic-media-cdn.tripadvisor.com/media/photo-o/1b/4b/d9/2b/the-one-pillar-pagoda.jpg?w=500&h=400&s=1",
    "rating": 3.9,
    "category": "Points of Interest & Landmarks",
    "description": "",
    "lat": 21.0369867,
    "lng": 105.8357925
  },
  {
    "id": "64",
    "name": "Vietnam National Tuong Theatre",
    "image": "https://dynamic-media-cdn.tripadvisor.com/media/photo-o/18/ac/a2/ad/vietnam-national-tuong.jpg?w=500&h=400&s=1",
    "rating": 4.3,
    "category": "Theaters",
    "description": "Vietnam Tuong Theatre was founded in 1959, in which Tuong - a traditional Vietnamese theatre is being preserved and developed. With the mission to spread Vietnamese traditional art, Behind The Mask…",
    "lat": 21.031366,
    "lng": 105.8471858
  },
  {
    "id": "91",
    "name": "Ho Chi Minh's Stilt House",
    "image": "https://dynamic-media-cdn.tripadvisor.com/media/photo-o/2c/7f/f5/57/caption.jpg?w=500&h=400&s=1",
    "rating": 4.0,
    "category": "Historic Sites",
    "description": "",
    "lat": 21.0381713,
    "lng": 105.833152
  },
  {
    "id": "83",
    "name": "Bach Ma Temple",
    "image": "https://dynamic-media-cdn.tripadvisor.com/media/photo-o/2a/6d/fd/27/caption.jpg?w=500&h=-1&s=1",
    "rating": 3.9,
    "category": "Points of Interest & Landmarks",
    "description": "",
    "lat": 21.0358096,
    "lng": 105.8510254
  },
  {
    "id": "12",
    "name": "Hanoi Train Street",
    "image": "https://dynamic-media-cdn.tripadvisor.com/media/photo-o/2e/b8/34/56/caption.jpg?w=500&h=400&s=1",
    "rating": 4.5,
    "category": "Points of Interest & Landmarks",
    "description": "",
    "lat": 21.0295823,
    "lng": 105.8433206
  },
  {
    "id": "80",
    "name": "Ho Tay Water Park",
    "image": "https://dynamic-media-cdn.tripadvisor.com/media/photo-o/04/63/49/95/ho-tay-water-park.jpg?w=500&h=-1&s=1",
    "rating": 3.4,
    "category": "Water Parks",
    "description": "",
    "lat": 21.0730979,
    "lng": 105.8173229
  },
  {
    "id": "62",
    "name": "Cau The Huc",
    "image": "https://dynamic-media-cdn.tripadvisor.com/media/photo-o/0f/0a/9b/ea/hanoi-hoan-kiem-see-c.jpg?w=500&h=400&s=1",
    "rating": 4.0,
    "category": "Bridges",
    "description": "",
    "lat": 21.0307724,
    "lng": 105.8527978
  },
  {
    "id": "40",
    "name": "Ba Vi National Park",
    "image": "https://dynamic-media-cdn.tripadvisor.com/media/photo-o/14/eb/2a/c9/winding-way-to-ba-vi.jpg?w=500&h=400&s=1",
    "rating": 4.4,
    "category": "National Parks",
    "description": "Located in Ba Vi Mountain Range, about 60 kilometers to the west of Hanoi, Ba Vi National Park, originally a French hill station, is considered as a fascinating destination for a weekend getaway. …",
    "lat": 21.0184475,
    "lng": 105.3930256
  },
  {
    "id": "269",
    "name": "Cafe Mai",
    "image": "https://dynamic-media-cdn.tripadvisor.com/media/photo-o/1b/4c/27/a2/coffee-paris-mai.jpg?w=500&h=400&s=1",
    "rating": 4.0,
    "category": "Coffeehouses",
    "description": "",
    "lat": 21.0592214,
    "lng": 105.9070395
  },
  {
    "id": "166",
    "name": "Hang Da Market",
    "image": "https://dynamic-media-cdn.tripadvisor.com/media/photo-o/26/19/44/c0/ch-hang-da.jpg?w=500&h=-1&s=1",
    "rating": 2.8,
    "category": "Flea & Street Markets",
    "description": "",
    "lat": 22.4533531,
    "lng": 114.1632454
  },
  {
    "id": "65",
    "name": "Hang Dau Street",
    "image": "https://dynamic-media-cdn.tripadvisor.com/media/photo-o/2b/9b/42/68/more-than-just-a-name.jpg?w=500&h=400&s=1",
    "rating": 3.8,
    "category": "Points of Interest & Landmarks",
    "description": "",
    "lat": 21.0399771,
    "lng": 105.8474668
  },
  {
    "id": "157",
    "name": "Hồ Trúc Bạch",
    "image": "https://dynamic-media-cdn.tripadvisor.com/media/photo-o/08/42/86/b1/view-of-truc-bach-lake.jpg?w=500&h=400&s=1",
    "rating": 3.6,
    "category": "Bodies of Water",
    "description": "",
    "lat": 21.0463247,
    "lng": 105.8384008
  },
  {
    "id": "87",
    "name": "Hang Bac Street",
    "image": "https://dynamic-media-cdn.tripadvisor.com/media/photo-o/16/62/03/cd/temple-on-hang-bac-street.jpg?w=500&h=400&s=1",
    "rating": 3.8,
    "category": "Points of Interest & Landmarks",
    "description": "",
    "lat": 21.0340457,
    "lng": 105.8513179
  },
  {
    "id": "108",
    "name": "Al Noor Mosque",
    "image": "https://dynamic-media-cdn.tripadvisor.com/media/photo-o/0d/63/48/e6/al-nour-mosque.jpg?w=500&h=-1&s=1",
    "rating": 4.2,
    "category": "Religious Sites",
    "description": "",
    "lat": 21.0379015,
    "lng": 105.8475838
  },
  {
    "id": "188",
    "name": "Zo Project",
    "image": "https://dynamic-media-cdn.tripadvisor.com/media/photo-o/0b/d1/e8/4d/hermoso-trabajo.jpg?w=500&h=400&s=1",
    "rating": 4.7,
    "category": "Art Galleries",
    "description": "Zó is a social enterprise with the mission of preserving and developing Dó paper – a traditional kind of handmade paper of Vietnam. Appearing in Vietnam in XIII century, Dó paper is manufactured through…",
    "lat": 9.6003505,
    "lng": 9.7584918
  },
  {
    "id": "58",
    "name": "Hom Market",
    "image": "https://dynamic-media-cdn.tripadvisor.com/media/photo-o/1a/db/db/c4/caption.jpg?w=500&h=-1&s=1",
    "rating": 4.1,
    "category": "Flea & Street Markets",
    "description": "",
    "lat": 19.3023022,
    "lng": 97.9673631
  },
  {
    "id": "155",
    "name": "Phu Tay Ho",
    "image": "https://dynamic-media-cdn.tripadvisor.com/media/photo-o/05/0e/a1/9b/pagoda.jpg?w=500&h=400&s=1",
    "rating": 4.1,
    "category": "Religious Sites",
    "description": "",
    "lat": 21.0557278,
    "lng": 105.8196419
  },
  {
    "id": "96",
    "name": "Long Bien Market",
    "image": "https://dynamic-media-cdn.tripadvisor.com/media/photo-o/2c/e6/bb/ca/caption.jpg?w=500&h=400&s=1",
    "rating": 3.5,
    "category": "Flea & Street Markets",
    "description": "",
    "lat": 22.4302785,
    "lng": 102.1724466
  },
  {
    "id": "37",
    "name": "Lotte Mall West Lake",
    "image": "https://dynamic-media-cdn.tripadvisor.com/media/photo-o/2b/b5/94/c8/caption.jpg?w=500&h=400&s=1",
    "rating": 4.3,
    "category": "Shopping Malls",
    "description": "",
    "lat": 21.0760187,
    "lng": 105.8125496
  },
  {
    "id": "86",
    "name": "Vietnam Military History Museum",
    "image": "https://dynamic-media-cdn.tripadvisor.com/media/photo-o/12/5c/28/47/vietnam-military-history.jpg?w=500&h=400&s=1",
    "rating": 4.2,
    "category": "History Museums",
    "description": "",
    "lat": 21.0116264,
    "lng": 105.7548056
  },
  {
    "id": "160",
    "name": "Dong Kinh Nghia Thuc Square",
    "image": "https://dynamic-media-cdn.tripadvisor.com/media/photo-o/1c/a8/3e/2f/namesti-pozde-v-noci.jpg?w=500&h=400&s=1",
    "rating": 4.1,
    "category": "Points of Interest & Landmarks",
    "description": "",
    "lat": 21.0320773,
    "lng": 105.8515916
  },
  {
    "id": "100",
    "name": "Nguyen Van Huyen Museum",
    "image": "https://dynamic-media-cdn.tripadvisor.com/media/photo-o/0e/8d/ef/0d/guests-interact-with.jpg?w=500&h=-1&s=1",
    "rating": 4.9,
    "category": "Speciality Museums",
    "description": "",
    "lat": 21.0400775,
    "lng": 105.7988403
  },
  {
    "id": "270",
    "name": "Àla Beauty Bar",
    "image": "https://dynamic-media-cdn.tripadvisor.com/media/photo-o/2d/05/49/c1/ala-beauty-bar.jpg?w=500&h=400&s=1",
    "rating": 5.0,
    "category": "Landmark",
    "description": "Are you looking for a modern and inspiring place to relax and get pampered? Then àla is proud to be the perfect destination for you to enjoy a relaxing atmosphere and beauty treatments in the heart…",
    "lat": 52.373271,
    "lng": 9.7076721
  },
  {
    "id": "89",
    "name": "French Quarter",
    "image": "https://dynamic-media-cdn.tripadvisor.com/media/photo-o/2a/37/ba/19/sunset-in-the-french.jpg?w=500&h=-1&s=1",
    "rating": 4.6,
    "category": "Points of Interest & Landmarks",
    "description": "",
    "lat": 11.9363958,
    "lng": 108.4483156
  },
  {
    "id": "132",
    "name": "Hang Ma Street",
    "image": "https://dynamic-media-cdn.tripadvisor.com/media/photo-o/19/20/4f/f4/fullmoon.jpg?w=500&h=400&s=1",
    "rating": 4.3,
    "category": "Points of Interest & Landmarks",
    "description": "",
    "lat": 21.0367011,
    "lng": 105.8482396
  }
]