[
  {
    "id": "1",
    "name": "Old Quarter",
    "image": "https://images.unsplash.com/photo-1555921015-5532091f6026?w=500&q=80",
    "rating": 4.5,
    "category": "Sightseeing",
    "description": "",
    "lat": 21.0349204,
    "lng": 105.852144
  },
  {
    "id": "2",
    "name": "Lake of the Restored Sword (Hoan Kiem Lake)",
    "image": "https://images.unsplash.com/photo-1555921015-5532091f6026?w=500&q=80",
    "rating": 4.3,
    "category": "Sightseeing",
    "description": "",
    "lat": 21.028763,
    "lng": 105.851362
  },
  {
    "id": "3",
    "name": "Thang Long Water Puppet",
    "image": "https://images.unsplash.com/photo-1555921015-5532091f6026?w=500&q=80",
    "rating": 4,
    "category": "Sightseeing",
    "description": "",
    "lat": 21.0317044,
    "lng": 105.853455
  },
  {
    "id": "4",
    "name": "Ho Chi Minh Mausoleum",
    "image": "https://images.unsplash.com/photo-1555921015-5532091f6026?w=500&q=80",
    "rating": 3.9,
    "category": "Sightseeing",
    "description": "",
    "lat": 21.0367831,
    "lng": 105.8346888
  },
  {
    "id": "5",
    "name": "Temple of Literature & National University",
    "image": "https://images.unsplash.com/photo-1555921015-5532091f6026?w=500&q=80",
    "rating": 4.3,
    "category": "Sightseeing",
    "description": "",
    "lat": 21.028107,
    "lng": 105.835695
  },
  {
    "id": "6",
    "name": "Hoa Lo Prison",
    "image": "https://images.unsplash.com/photo-1555921015-5532091f6026?w=500&q=80",
    "rating": 4.2,
    "category": "Sightseeing",
    "description": "",
    "lat": 21.0254222,
    "lng": 105.8465093
  },
  {
    "id": "7",
    "name": "Vietnam Museum of Ethnology",
    "image": "https://images.unsplash.com/photo-1555921015-5532091f6026?w=500&q=80",
    "rating": 4.4,
    "category": "Arts & Culture",
    "description": "",
    "lat": 21.0400775,
    "lng": 105.7988403
  },
  {
    "id": "8",
    "name": "Vietnamese Women's Museum",
    "image": "https://images.unsplash.com/photo-1555921015-5532091f6026?w=500&q=80",
    "rating": 4.5,
    "category": "Arts & Culture",
    "description": "",
    "lat": 21.0233507,
    "lng": 105.8515958
  },
  {
    "id": "9",
    "name": "Ho Chi Minh’s Stilt House",
    "image": "https://images.unsplash.com/photo-1555921015-5532091f6026?w=500&q=80",
    "rating": 4,
    "category": "Sightseeing",
    "description": "",
    "lat": 21.0381713,
    "lng": 105.833152
  },
  {
    "id": "10",
    "name": "St. Joseph's Cathedral",
    "image": "https://images.unsplash.com/photo-1555921015-5532091f6026?w=500&q=80",
    "rating": 4,
    "category": "Sightseeing",
    "description": "",
    "lat": 21.0286483,
    "lng": 105.8488566
  },
  {
    "id": "11",
    "name": "West Lake",
    "image": "https://images.unsplash.com/photo-1555921015-5532091f6026?w=500&q=80",
    "rating": 4,
    "category": "Sightseeing",
    "description": "",
    "lat": 21.0580419,
    "lng": 105.8139655
  },
  {
    "id": "12",
    "name": "Vietnam Military History Museum",
    "image": "https://images.unsplash.com/photo-1555921015-5532091f6026?w=500&q=80",
    "rating": 3.9,
    "category": "Arts & Culture",
    "description": "",
    "lat": 21.0116264,
    "lng": 105.7548056
  },
  {
    "id": "13",
    "name": "One Pillar Pagoda",
    "image": "https://images.unsplash.com/photo-1555921015-5532091f6026?w=500&q=80",
    "rating": 3.6,
    "category": "Sightseeing",
    "description": "",
    "lat": 21.0358555,
    "lng": 105.8336143
  },
  {
    "id": "14",
    "name": "Hanoi Opera House",
    "image": "https://images.unsplash.com/photo-1555921015-5532091f6026?w=500&q=80",
    "rating": 4.1,
    "category": "Sightseeing",
    "description": "",
    "lat": 21.0242041,
    "lng": 105.8578297
  },
  {
    "id": "15",
    "name": "Ho Chi Minh Museum",
    "image": "https://images.unsplash.com/photo-1555921015-5532091f6026?w=500&q=80",
    "rating": 3.7,
    "category": "Arts & Culture",
    "description": "",
    "lat": 21.0356168,
    "lng": 105.8326294
  },
  {
    "id": "16",
    "name": "Đền Ngọc Sơn",
    "image": "https://images.unsplash.com/photo-1555921015-5532091f6026?w=500&q=80",
    "rating": 3.8,
    "category": "Sightseeing",
    "description": "",
    "lat": 21.0307272,
    "lng": 105.8523763
  },
  {
    "id": "17",
    "name": "Chua Tran Quoc",
    "image": "https://images.unsplash.com/photo-1555921015-5532091f6026?w=500&q=80",
    "rating": 4.2,
    "category": "Sightseeing",
    "description": "",
    "lat": 21.0478837,
    "lng": 105.8368375
  },
  {
    "id": "18",
    "name": "Long Bien Bridge",
    "image": "https://images.unsplash.com/photo-1555921015-5532091f6026?w=500&q=80",
    "rating": 4.1,
    "category": "Sightseeing",
    "description": "",
    "lat": 21.0430731,
    "lng": 105.8580295
  },
  {
    "id": "19",
    "name": "Fine Arts Museum (Bao Tang My Thuat)",
    "image": "https://images.unsplash.com/photo-1555921015-5532091f6026?w=500&q=80",
    "rating": 4.3,
    "category": "Arts & Culture",
    "description": "",
    "lat": 21.030697,
    "lng": 105.837079
  },
  {
    "id": "20",
    "name": "Đường Tàu",
    "image": "https://images.unsplash.com/photo-1555921015-5532091f6026?w=500&q=80",
    "rating": 4.1,
    "category": "Sightseeing",
    "description": "",
    "lat": 20.9705285,
    "lng": 105.8417959
  },
  {
    "id": "21",
    "name": "Dong Xuan Market",
    "image": "https://images.unsplash.com/photo-1555921015-5532091f6026?w=500&q=80",
    "rating": 3,
    "category": "Eat & Shop",
    "description": "",
    "lat": 21.0380525,
    "lng": 105.8494257
  },
  {
    "id": "22",
    "name": "Night Market",
    "image": "https://images.unsplash.com/photo-1555921015-5532091f6026?w=500&q=80",
    "rating": 3.5,
    "category": "Eat & Shop",
    "description": "",
    "lat": 21.0332192,
    "lng": 105.8523763
  },
  {
    "id": "23",
    "name": "Imperial Citadel of Thang Long",
    "image": "https://images.unsplash.com/photo-1555921015-5532091f6026?w=500&q=80",
    "rating": 4,
    "category": "Sightseeing",
    "description": "",
    "lat": 21.0356929,
    "lng": 105.8403038
  },
  {
    "id": "24",
    "name": "Hanoi Ceramic Mosaic Mural",
    "image": "https://images.unsplash.com/photo-1555921015-5532091f6026?w=500&q=80",
    "rating": 4.3,
    "category": "Sightseeing",
    "description": "",
    "lat": 21.045356,
    "lng": 105.845973
  },
  {
    "id": "25",
    "name": "Perfume Pagoda",
    "image": "https://images.unsplash.com/photo-1555921015-5532091f6026?w=500&q=80",
    "rating": 3.7,
    "category": "Sightseeing",
    "description": "",
    "lat": 20.6054692,
    "lng": 105.7742768
  },
  {
    "id": "26",
    "name": "Thap Rua Tower",
    "image": "https://images.unsplash.com/photo-1555921015-5532091f6026?w=500&q=80",
    "rating": 4,
    "category": "Sightseeing",
    "description": "",
    "lat": 21.0278731,
    "lng": 105.8522929
  },
  {
    "id": "27",
    "name": "Hanoi Old Quarter Vietnam",
    "image": "https://images.unsplash.com/photo-1555921015-5532091f6026?w=500&q=80",
    "rating": 4,
    "category": "Sightseeing",
    "description": "",
    "lat": 21.0327085,
    "lng": 105.8545846
  },
  {
    "id": "28",
    "name": "Thang Long Water Puppet Theater",
    "image": "https://images.unsplash.com/photo-1555921015-5532091f6026?w=500&q=80",
    "rating": 4,
    "category": "Sightseeing",
    "description": "",
    "lat": 21.0317044,
    "lng": 105.853455
  },
  {
    "id": "29",
    "name": "Vietnam National Museum of History",
    "image": "https://images.unsplash.com/photo-1555921015-5532091f6026?w=500&q=80",
    "rating": 3.7,
    "category": "Arts & Culture",
    "description": "",
    "lat": 21.02414,
    "lng": 105.8597599
  },
  {
    "id": "30",
    "name": "Hanoi Flag Tower",
    "image": "https://images.unsplash.com/photo-1555921015-5532091f6026?w=500&q=80",
    "rating": 3.8,
    "category": "Arts & Culture",
    "description": "",
    "lat": 21.0325903,
    "lng": 105.8398246
  },
  {
    "id": "31",
    "name": "Ancient House",
    "image": "https://images.unsplash.com/photo-1555921015-5532091f6026?w=500&q=80",
    "rating": 4.1,
    "category": "Arts & Culture",
    "description": "",
    "lat": 20.7423183,
    "lng": 107.0288077
  },
  {
    "id": "33",
    "name": "Quan Thanh Temple",
    "image": "https://images.unsplash.com/photo-1555921015-5532091f6026?w=500&q=80",
    "rating": 4,
    "category": "Sightseeing",
    "description": "",
    "lat": 21.0430059,
    "lng": 105.8365874
  },
  {
    "id": "34",
    "name": "Lotte Observation Deck",
    "image": "https://images.unsplash.com/photo-1555921015-5532091f6026?w=500&q=80",
    "rating": 4.4,
    "category": "Sightseeing",
    "description": "",
    "lat": 21.0322019,
    "lng": 105.8123288
  },
  {
    "id": "35",
    "name": "Hanoi Police Museum",
    "image": "https://images.unsplash.com/photo-1555921015-5532091f6026?w=500&q=80",
    "rating": 4.4,
    "category": "Arts & Culture",
    "description": "",
    "lat": 21.0245019,
    "lng": 105.8459685
  },
  {
    "id": "36",
    "name": "Ca Tru Thang Long",
    "image": "https://images.unsplash.com/photo-1555921015-5532091f6026?w=500&q=80",
    "rating": 4.5,
    "category": "Sightseeing",
    "description": "",
    "lat": 21.0360441,
    "lng": 105.8517949
  },
  {
    "id": "37",
    "name": "Huu Tiep Lake and the Downed B-52",
    "image": "https://images.unsplash.com/photo-1555921015-5532091f6026?w=500&q=80",
    "rating": 3.9,
    "category": "Sightseeing",
    "description": "",
    "lat": 21.0379386,
    "lng": 105.8270934
  },
  {
    "id": "38",
    "name": "B52 Victory Museum",
    "image": "https://images.unsplash.com/photo-1555921015-5532091f6026?w=500&q=80",
    "rating": 3.9,
    "category": "Arts & Culture",
    "description": "",
    "lat": 21.0355466,
    "lng": 105.8260952
  },
  {
    "id": "39",
    "name": "Hanoi Old Citadel - Northern Gate",
    "image": "https://images.unsplash.com/photo-1555921015-5532091f6026?w=500&q=80",
    "rating": 3.8,
    "category": "Sightseeing",
    "description": "",
    "lat": 21.040555,
    "lng": 105.841032
  },
  {
    "id": "40",
    "name": "Ta Hien Street",
    "image": "https://images.unsplash.com/photo-1555921015-5532091f6026?w=500&q=80",
    "rating": 4,
    "category": "Sightseeing",
    "description": "",
    "lat": 21.0341961,
    "lng": 105.8520789
  },
  {
    "id": "44",
    "name": "Ly Thai To Park",
    "image": "https://images.unsplash.com/photo-1555921015-5532091f6026?w=500&q=80",
    "rating": 3.9,
    "category": "Nature & Outdoors",
    "description": "",
    "lat": 21.0274649,
    "lng": 105.8547497
  },
  {
    "id": "45",
    "name": "The Quintessence of Tonkin",
    "image": "https://images.unsplash.com/photo-1555921015-5532091f6026?w=500&q=80",
    "rating": 4.6,
    "category": "Sightseeing",
    "description": "",
    "lat": 21.0196558,
    "lng": 105.6399338
  },
  {
    "id": "47",
    "name": "GOm Show",
    "image": "https://images.unsplash.com/photo-1555921015-5532091f6026?w=500&q=80",
    "rating": 5,
    "category": "Sightseeing",
    "description": "",
    "lat": 21.0283253,
    "lng": 105.8551865
  },
  {
    "id": "53",
    "name": "Ba Dinh Square",
    "image": "https://images.unsplash.com/photo-1555921015-5532091f6026?w=500&q=80",
    "rating": 3.9,
    "category": "Sightseeing",
    "description": "",
    "lat": 21.0369867,
    "lng": 105.8357925
  },
  {
    "id": "54",
    "name": "Vietnam National Tuong Theatre",
    "image": "https://images.unsplash.com/photo-1555921015-5532091f6026?w=500&q=80",
    "rating": 4.3,
    "category": "Sightseeing",
    "description": "",
    "lat": 21.031366,
    "lng": 105.8471858
  },
  {
    "id": "55",
    "name": "Ho Chi Minh's Stilt House",
    "image": "https://images.unsplash.com/photo-1555921015-5532091f6026?w=500&q=80",
    "rating": 4,
    "category": "Sightseeing",
    "description": "",
    "lat": 21.0381713,
    "lng": 105.833152
  },
  {
    "id": "56",
    "name": "Bach Ma Temple",
    "image": "https://images.unsplash.com/photo-1555921015-5532091f6026?w=500&q=80",
    "rating": 3.9,
    "category": "Sightseeing",
    "description": "",
    "lat": 21.0358096,
    "lng": 105.8510254
  },
  {
    "id": "58",
    "name": "Hanoi Train Street",
    "image": "https://images.unsplash.com/photo-1555921015-5532091f6026?w=500&q=80",
    "rating": 4.5,
    "category": "Sightseeing",
    "description": "",
    "lat": 21.0295823,
    "lng": 105.8433206
  },
  {
    "id": "59",
    "name": "Ho Tay Water Park",
    "image": "https://images.unsplash.com/photo-1555921015-5532091f6026?w=500&q=80",
    "rating": 3.4,
    "category": "Nature & Outdoors",
    "description": "",
    "lat": 21.0730979,
    "lng": 105.8173229
  },
  {
    "id": "60",
    "name": "Cau The Huc",
    "image": "https://images.unsplash.com/photo-1555921015-5532091f6026?w=500&q=80",
    "rating": 4,
    "category": "Sightseeing",
    "description": "",
    "lat": 21.0307724,
    "lng": 105.8527978
  },
  {
    "id": "61",
    "name": "Ba Vi National Park",
    "image": "https://images.unsplash.com/photo-1555921015-5532091f6026?w=500&q=80",
    "rating": 4.4,
    "category": "Nature & Outdoors",
    "description": "",
    "lat": 21.0184475,
    "lng": 105.3930256
  },
  {
    "id": "62",
    "name": "Cafe Mai",
    "image": "https://images.unsplash.com/photo-1555921015-5532091f6026?w=500&q=80",
    "rating": 4,
    "category": "Sightseeing",
    "description": "",
    "lat": 21.0592214,
    "lng": 105.9070395
  },
  {
    "id": "64",
    "name": "Hang Dau Street",
    "image": "https://images.unsplash.com/photo-1555921015-5532091f6026?w=500&q=80",
    "rating": 3.8,
    "category": "Sightseeing",
    "description": "",
    "lat": 21.0399771,
    "lng": 105.8474668
  },
  {
    "id": "66",
    "name": "Hồ Trúc Bạch",
    "image": "https://images.unsplash.com/photo-1555921015-5532091f6026?w=500&q=80",
    "rating": 3.6,
    "category": "Sightseeing",
    "description": "",
    "lat": 21.0463247,
    "lng": 105.8384008
  },
  {
    "id": "69",
    "name": "Hang Bac Street",
    "image": "https://images.unsplash.com/photo-1555921015-5532091f6026?w=500&q=80",
    "rating": 3.8,
    "category": "Sightseeing",
    "description": "",
    "lat": 21.0340457,
    "lng": 105.8513179
  },
  {
    "id": "70",
    "name": "Al Noor Mosque",
    "image": "https://images.unsplash.com/photo-1555921015-5532091f6026?w=500&q=80",
    "rating": 4.2,
    "category": "Sightseeing",
    "description": "",
    "lat": 21.0379015,
    "lng": 105.8475838
  },
  {
    "id": "73",
    "name": "Phu Tay Ho",
    "image": "https://images.unsplash.com/photo-1555921015-5532091f6026?w=500&q=80",
    "rating": 4.1,
    "category": "Sightseeing",
    "description": "",
    "lat": 21.0557278,
    "lng": 105.8196419
  },
  {
    "id": "79",
    "name": "Lotte Mall West Lake",
    "image": "https://images.unsplash.com/photo-1555921015-5532091f6026?w=500&q=80",
    "rating": 4.3,
    "category": "Sightseeing",
    "description": "",
    "lat": 21.0760187,
    "lng": 105.8125496
  },
  {
    "id": "80",
    "name": "Dong Kinh Nghia Thuc Square",
    "image": "https://images.unsplash.com/photo-1555921015-5532091f6026?w=500&q=80",
    "rating": 4.1,
    "category": "Sightseeing",
    "description": "",
    "lat": 21.0320773,
    "lng": 105.8515916
  },
  {
    "id": "81",
    "name": "Nguyen Van Huyen Museum",
    "image": "https://images.unsplash.com/photo-1555921015-5532091f6026?w=500&q=80",
    "rating": 4.9,
    "category": "Arts & Culture",
    "description": "",
    "lat": 21.0400775,
    "lng": 105.7988403
  },
  {
    "id": "89",
    "name": "Hang Ma Street",
    "image": "https://images.unsplash.com/photo-1555921015-5532091f6026?w=500&q=80",
    "rating": 4.3,
    "category": "Sightseeing",
    "description": "",
    "lat": 21.0367011,
    "lng": 105.8482396
  },
  {
    "id": "90",
    "name": "Hanoi Zoo (Thu Le Zoo)",
    "image": "https://images.unsplash.com/photo-1555921015-5532091f6026?w=500&q=80",
    "rating": 3.8,
    "category": "Nature & Outdoors",
    "description": "",
    "lat": 21.0298,
    "lng": 105.816
  },
  {
    "id": "91",
    "name": "Thong Nhat Park",
    "image": "https://images.unsplash.com/photo-1555921015-5532091f6026?w=500&q=80",
    "rating": 4.2,
    "category": "Nature & Outdoors",
    "description": "",
    "lat": 21.0196,
    "lng": 105.8411
  },
  {
    "id": "92",
    "name": "Thien Quang Lake",
    "image": "https://images.unsplash.com/photo-1555921015-5532091f6026?w=500&q=80",
    "rating": 4,
    "category": "Nature & Outdoors",
    "description": "",
    "lat": 21.0216,
    "lng": 105.8488
  },
  {
    "id": "93",
    "name": "Lenin Park",
    "image": "https://images.unsplash.com/photo-1555921015-5532091f6026?w=500&q=80",
    "rating": 3.9,
    "category": "Nature & Outdoors",
    "description": "",
    "lat": 21.0322,
    "lng": 105.8398
  },
  {
    "id": "94",
    "name": "Huu Tiep Lake (B52 Lake)",
    "image": "https://images.unsplash.com/photo-1555921015-5532091f6026?w=500&q=80",
    "rating": 4.3,
    "category": "Nature & Outdoors",
    "description": "",
    "lat": 21.0376,
    "lng": 105.8267
  },
  {
    "id": "95",
    "name": "Hoang Hoa Tham Flower Street",
    "image": "https://images.unsplash.com/photo-1555921015-5532091f6026?w=500&q=80",
    "rating": 4.1,
    "category": "Eat & Shop",
    "description": "",
    "lat": 21.0428,
    "lng": 105.831
  },
  {
    "id": "96",
    "name": "Ngoc Khanh Lake",
    "image": "https://images.unsplash.com/photo-1555921015-5532091f6026?w=500&q=80",
    "rating": 4,
    "category": "Nature & Outdoors",
    "description": "",
    "lat": 21.0318,
    "lng": 105.8165
  },
  {
    "id": "97",
    "name": "Nghia Do Park",
    "image": "https://images.unsplash.com/photo-1555921015-5532091f6026?w=500&q=80",
    "rating": 4.1,
    "category": "Nature & Outdoors",
    "description": "",
    "lat": 21.0432,
    "lng": 105.7988
  },
  {
    "id": "98",
    "name": "Tay Ho Promenade",
    "image": "https://images.unsplash.com/photo-1555921015-5532091f6026?w=500&q=80",
    "rating": 4.5,
    "category": "Nature & Outdoors",
    "description": "",
    "lat": 21.0563,
    "lng": 105.8189
  },
  {
    "id": "99",
    "name": "Bat Trang Ceramic Village",
    "image": "https://images.unsplash.com/photo-1555921015-5532091f6026?w=500&q=80",
    "rating": 4.4,
    "category": "Sightseeing",
    "description": "",
    "lat": 20.9972,
    "lng": 105.9102
  },
  {
    "id": "100",
    "name": "Vietnam Museum of Fine Arts",
    "image": "https://images.unsplash.com/photo-1555921015-5532091f6026?w=500&q=80",
    "rating": 4.6,
    "category": "Arts & Culture",
    "description": "",
    "lat": 21.0303,
    "lng": 105.8425
  },
  {
    "id": "101",
    "name": "Manzi Art Space",
    "image": "https://images.unsplash.com/photo-1555921015-5532091f6026?w=500&q=80",
    "rating": 4.7,
    "category": "Sightseeing",
    "description": "",
    "lat": 21.0405,
    "lng": 105.8411
  },
  {
    "id": "102",
    "name": "VICAS Art Studio",
    "image": "https://images.unsplash.com/photo-1555921015-5532091f6026?w=500&q=80",
    "rating": 4.5,
    "category": "Sightseeing",
    "description": "",
    "lat": 21.0185,
    "lng": 105.842
  },
  {
    "id": "103",
    "name": "Hanoi Creative City",
    "image": "https://images.unsplash.com/photo-1555921015-5532091f6026?w=500&q=80",
    "rating": 4,
    "category": "Sightseeing",
    "description": "",
    "lat": 21.0155,
    "lng": 105.8655
  },
  {
    "id": "104",
    "name": "Work Room Four",
    "image": "https://images.unsplash.com/photo-1555921015-5532091f6026?w=500&q=80",
    "rating": 4.5,
    "category": "Sightseeing",
    "description": "",
    "lat": 21.052,
    "lng": 105.821
  },
  {
    "id": "105",
    "name": "Tadioto Bar & Gallery",
    "image": "https://images.unsplash.com/photo-1555921015-5532091f6026?w=500&q=80",
    "rating": 4.6,
    "category": "Sightseeing",
    "description": "",
    "lat": 21.0285,
    "lng": 105.8543
  },
  {
    "id": "106",
    "name": "Heritage Space",
    "image": "https://images.unsplash.com/photo-1555921015-5532091f6026?w=500&q=80",
    "rating": 4.4,
    "category": "Sightseeing",
    "description": "",
    "lat": 21.0365,
    "lng": 105.782
  },
  {
    "id": "107",
    "name": "Salon Natasha",
    "image": "https://images.unsplash.com/photo-1555921015-5532091f6026?w=500&q=80",
    "rating": 4.5,
    "category": "Sightseeing",
    "description": "",
    "lat": 21.0275,
    "lng": 105.8503
  },
  {
    "id": "108",
    "name": "Dinh Q. Le Gallery",
    "image": "https://images.unsplash.com/photo-1555921015-5532091f6026?w=500&q=80",
    "rating": 4.5,
    "category": "Sightseeing",
    "description": "",
    "lat": 21.0491,
    "lng": 105.8197
  },
  {
    "id": "109",
    "name": "Van Phuc Silk Village",
    "image": "https://images.unsplash.com/photo-1555921015-5532091f6026?w=500&q=80",
    "rating": 4.3,
    "category": "Sightseeing",
    "description": "",
    "lat": 20.9777,
    "lng": 105.7705
  },
  {
    "id": "110",
    "name": "Dinh Le Book Street",
    "image": "https://images.unsplash.com/photo-1555921015-5532091f6026?w=500&q=80",
    "rating": 4.4,
    "category": "Eat & Shop",
    "description": "",
    "lat": 21.0252,
    "lng": 105.852
  },
  {
    "id": "111",
    "name": "Hang Gai Silk Street",
    "image": "https://images.unsplash.com/photo-1555921015-5532091f6026?w=500&q=80",
    "rating": 4.3,
    "category": "Sightseeing",
    "description": "",
    "lat": 21.0315,
    "lng": 105.8505
  },
  {
    "id": "112",
    "name": "Hang Buom Food Street",
    "image": "https://images.unsplash.com/photo-1555921015-5532091f6026?w=500&q=80",
    "rating": 4.5,
    "category": "Eat & Shop",
    "description": "",
    "lat": 21.0362,
    "lng": 105.8499
  },
  {
    "id": "113",
    "name": "Ma May Ancient House",
    "image": "https://images.unsplash.com/photo-1555921015-5532091f6026?w=500&q=80",
    "rating": 4.2,
    "category": "Sightseeing",
    "description": "",
    "lat": 21.0349,
    "lng": 105.8512
  },
  {
    "id": "114",
    "name": "Cha Ca La Vong Street",
    "image": "https://images.unsplash.com/photo-1555921015-5532091f6026?w=500&q=80",
    "rating": 4.4,
    "category": "Sightseeing",
    "description": "",
    "lat": 21.036,
    "lng": 105.8481
  },
  {
    "id": "115",
    "name": "Hang Khoai Night Market",
    "image": "https://images.unsplash.com/photo-1555921015-5532091f6026?w=500&q=80",
    "rating": 4.1,
    "category": "Eat & Shop",
    "description": "",
    "lat": 21.0382,
    "lng": 105.8476
  },
  {
    "id": "116",
    "name": "Bun Cha Huong Lien (Obama Bun Cha)",
    "image": "https://images.unsplash.com/photo-1555921015-5532091f6026?w=500&q=80",
    "rating": 4.4,
    "category": "Sightseeing",
    "description": "",
    "lat": 21.0233,
    "lng": 105.8432
  },
  {
    "id": "117",
    "name": "Cafe Pho Co",
    "image": "https://images.unsplash.com/photo-1555921015-5532091f6026?w=500&q=80",
    "rating": 4.5,
    "category": "Sightseeing",
    "description": "",
    "lat": 21.0335,
    "lng": 105.8511
  },
  {
    "id": "118",
    "name": "Trang Tien Ice Cream",
    "image": "https://images.unsplash.com/photo-1555921015-5532091f6026?w=500&q=80",
    "rating": 4.6,
    "category": "Sightseeing",
    "description": "",
    "lat": 21.0267,
    "lng": 105.8553
  },
  {
    "id": "119",
    "name": "Nha Chung Street",
    "image": "https://images.unsplash.com/photo-1555921015-5532091f6026?w=500&q=80",
    "rating": 4.3,
    "category": "Sightseeing",
    "description": "",
    "lat": 21.028,
    "lng": 105.8485
  },
  {
    "id": "120",
    "name": "Phan Dinh Phung Street",
    "image": "https://images.unsplash.com/photo-1555921015-5532091f6026?w=500&q=80",
    "rating": 4.7,
    "category": "Sightseeing",
    "description": "",
    "lat": 21.039,
    "lng": 105.839
  },
  {
    "id": "121",
    "name": "Trieu Viet Vuong Coffee Street",
    "image": "https://images.unsplash.com/photo-1555921015-5532091f6026?w=500&q=80",
    "rating": 4.5,
    "category": "Sightseeing",
    "description": "",
    "lat": 21.016,
    "lng": 105.849
  },
  {
    "id": "122",
    "name": "Temple of Literature",
    "image": "https://images.unsplash.com/photo-1555921015-5532091f6026?w=500&q=80",
    "rating": 4.7,
    "category": "Sightseeing",
    "description": "",
    "lat": 21.0272,
    "lng": 105.8359
  },
  {
    "id": "123",
    "name": "Kim Lien Pagoda",
    "image": "https://images.unsplash.com/photo-1555921015-5532091f6026?w=500&q=80",
    "rating": 4.3,
    "category": "Religious Sites",
    "description": "",
    "lat": 21.023,
    "lng": 105.8454
  },
  {
    "id": "124",
    "name": "Dien Huu Pagoda",
    "image": "https://images.unsplash.com/photo-1555921015-5532091f6026?w=500&q=80",
    "rating": 4.2,
    "category": "Religious Sites",
    "description": "",
    "lat": 21.0358,
    "lng": 105.8337
  },
  {
    "id": "125",
    "name": "Ham Long Church",
    "image": "https://images.unsplash.com/photo-1555921015-5532091f6026?w=500&q=80",
    "rating": 4.4,
    "category": "Sightseeing",
    "description": "",
    "lat": 21.0238,
    "lng": 105.8498
  },
  {
    "id": "126",
    "name": "Quan Su Pagoda",
    "image": "https://images.unsplash.com/photo-1555921015-5532091f6026?w=500&q=80",
    "rating": 4.5,
    "category": "Religious Sites",
    "description": "",
    "lat": 21.0253,
    "lng": 105.8445
  },
  {
    "id": "127",
    "name": "Landmark 72 Sky View",
    "image": "https://images.unsplash.com/photo-1555921015-5532091f6026?w=500&q=80",
    "rating": 4.5,
    "category": "Sightseeing",
    "description": "",
    "lat": 21.0173,
    "lng": 105.7838
  },
  {
    "id": "128",
    "name": "Indochina Plaza Hanoi",
    "image": "https://images.unsplash.com/photo-1555921015-5532091f6026?w=500&q=80",
    "rating": 4.2,
    "category": "Sightseeing",
    "description": "",
    "lat": 21.037,
    "lng": 105.7835
  },
  {
    "id": "129",
    "name": "Royal City Vincom Mega Mall",
    "image": "https://images.unsplash.com/photo-1555921015-5532091f6026?w=500&q=80",
    "rating": 4.4,
    "category": "Sightseeing",
    "description": "",
    "lat": 21.0028,
    "lng": 105.8155
  },
  {
    "id": "130",
    "name": "Times City",
    "image": "https://images.unsplash.com/photo-1555921015-5532091f6026?w=500&q=80",
    "rating": 4.3,
    "category": "Sightseeing",
    "description": "",
    "lat": 20.9955,
    "lng": 105.8675
  },
  {
    "id": "131",
    "name": "Aeon Mall Long Bien",
    "image": "https://images.unsplash.com/photo-1555921015-5532091f6026?w=500&q=80",
    "rating": 4.6,
    "category": "Sightseeing",
    "description": "",
    "lat": 21.0265,
    "lng": 105.8975
  },
  {
    "id": "132",
    "name": "Banh Mi 25",
    "image": "https://images.unsplash.com/photo-1555921015-5532091f6026?w=500&q=80",
    "rating": 4.8,
    "category": "Sightseeing",
    "description": "",
    "lat": 21.0327,
    "lng": 105.8497
  },
  {
    "id": "133",
    "name": "Bun Cha Dac Kim",
    "image": "https://images.unsplash.com/photo-1555921015-5532091f6026?w=500&q=80",
    "rating": 4.5,
    "category": "Sightseeing",
    "description": "",
    "lat": 21.0362,
    "lng": 105.85
  },
  {
    "id": "134",
    "name": "Pho Gia Truyen Bat Dan",
    "image": "https://images.unsplash.com/photo-1555921015-5532091f6026?w=500&q=80",
    "rating": 4.4,
    "category": "Sightseeing",
    "description": "",
    "lat": 21.0358,
    "lng": 105.8472
  },
  {
    "id": "135",
    "name": "Giang Cafe (Egg Coffee)",
    "image": "https://images.unsplash.com/photo-1555921015-5532091f6026?w=500&q=80",
    "rating": 4.6,
    "category": "Sightseeing",
    "description": "",
    "lat": 21.0355,
    "lng": 105.8501
  },
  {
    "id": "136",
    "name": "Cha Ca Thang Long",
    "image": "https://images.unsplash.com/photo-1555921015-5532091f6026?w=500&q=80",
    "rating": 4.5,
    "category": "Sightseeing",
    "description": "",
    "lat": 21.0346,
    "lng": 105.8489
  }
]